local,longitud,latitud,denominacion,tipo
ACB,-60.57066,-33.27226,CORONEL BOGADO/AGROSERVICIOS,Aeródromo
ACH,-64.61351,-37.40164,GENERAL ACHA,Aeródromo
ACM,-60.1417,-34.07574,ARRECIFES/LA CURA MALAL,Aeródromo
ADO,-65.9041,-47.73511,PUERTO DESEADO,Aeródromo
ADT,-62.26462,-28.85541,BANDERA/AGROSERVICIOS DOÑA TERESA,Aeródromo
ADU,-62.23812,-28.86691,BANDERA/DUTTO,Aeródromo
AER,-58.41638889,-34.55888889,BUENOS AIRES/AEROPARQUE J. NEWBERY,Aeródromo
AGI,-70.01075,-40.19232,PIEDRA DEL ÁGUILA,Aeródromo
AGR,-64.39388889,-31.65111111,ALTA GRACIA,Aeródromo
AII,-60.51661,-34.81116,CHACABUCO/LAS DOS A,Aeródromo
AJA,-68.47305556,-31.35138889,LA LAJA,Aeródromo
ALC,-62.52293,-34.80942,AMEGHINO/LA CHACRA,Aeródromo
ALL,-67.80277778,-38.95833333,ALLEN,Aeródromo
ALR,-63.73,-33.34861111,ALEJANDRO ROCA,Aeródromo
ALT,-61.83694444,-33.00777778,CRUZ ALTA,Aeródromo
ALV,-60.66682,-33.06853,ALVEAR/AGROALVEAR SRL,Aeródromo
AMA,-62.01657,-35.10043,ROBERTS/LA AMALIA,Aeródromo
AME,-62.46787,-34.83057,AMEGHINO/SIGFRIDO ROHR,Aeródromo
AMG,-62.48266,-34.84541,AMEGHINO,Aeródromo
ANA,-60.37388889,-31.75777778,PARANÁ/AEROCLUB,Aeródromo
AND,-66.34277778,-27.62805556,ANDALGALÁ,Aeródromo
APO,-55.76555556,-27.90333333,APÓSTOLES,Aeródromo
ARB,-61.38666667,-34.22194444,ARRIBEÑOS,Aeródromo
ARS,-70.81282,-45.0132,ALTO RÍO SENGUERR/D. C. SZLAPELIS,Aeródromo
ARY,-63.005,-31.42222222,ARROYITO/ARCOR,Aeródromo
ATE,-59.08266,-34.11829,ZÁRATE,Aeródromo
ATN,-62.70635,-35.99773,TRENQUE LAUQUEN/LA ARGENTINA,Aeródromo
AUL,-62.47709,-34.81797,AMEGHINO/AUGUSTO LEGUIZAMÓN,Aeródromo
AVA,-60.59756,-33.04691,ALVEAR/AEROPARQUE ROSARIO,Aeródromo
AVL,-59.6575,-29.10611111,AVELLANEDA/PRESIDENTE AVELLANEDA,Aeródromo
AYA,-58.47305556,-37.1625,AYACUCHO,Aeródromo
BAD,-57.64416667,-27.38277778,BERÓN DE ASTRADA/DINALUCA S.A.,Aeródromo
BAI,-70.94805556,-46.57611111,LAGO BUENOS AIRES,Aeródromo
BAL,-58.34361111,-37.91527778,BALCARCE,Aeródromo
BAR,-71.15777778,-41.15111111,SAN CARLOS DE BARILOCHE,Aeródromo
BAS,-58.8816,-32.3616,BASAVILBASO,Aeródromo
BCA,-62.15333333,-38.7275,BAHÍA BLANCA/COMANDANTE ESPORA,Aeródromo
BDO,-59.49279,-33.82122,BARADERO,Aeródromo
BDR,-65.08222222,-41.84277778,BAHÍA DORADA,Aeródromo
BEL,-62.70194444,-32.65833333,BELL VILLE,Aeródromo
BEX,-59.46911,-33.85864,BARADERO,Aeródromo
BHB,-62.3525,-38.67194444,BAHÍA BLANCA/AEROCLUB,Aeródromo
BHT,-60.57884,-35.33147,BRAGADO/HARAS TRELLIRIS,Aeródromo
BIO,-72.22034,-51.60502,EL TURBIO/28 DE NOVIEMBRE,Aeródromo
BLA,-58.18833333,-37.46277778,BALCARCE/EA. LA ALBORADA,Aeródromo
BLC,-58.03821,-37.73529,BALCARCE/EA. LOS CARDOS,Aeródromo
BLE,-58.66611111,-37.55944444,BALCARCE/EA. LA ESTRELLA,Aeródromo
BLL,-58.10861111,-38.35472222,MIRAMAR/LAS CORTADERAS,Aeródromo
BLN,-67.095,-27.70805556,LONDRES/BELÉN,Aeródromo
BLR,-61.07583333,-36.18666667,BOLIVAR,Aeródromo
BMO,-60.50555556,-35.15166667,BRAGADO/MALFATO,Aeródromo
BOE,-62.00809,-30.73091,MORTEROS/AEROBOERO,Aeródromo
BOG,-60.66617,-33.32404,CORONEL BOGADO/FUMIGACIONES CAMPAGNUCCI,Aeródromo
BOL,-71.53215,-41.94323,EL BOLSÓN,Aeródromo
BOM,-61.30323,-33.43852,BOMBAL/GRAN ANCONA,Aeródromo
BOS,-59.13666667,-35.21083333,LOBOS,Aeródromo
BPS,-62.05055556,-30.92944444,BRINKMANN/PABLO SIERRA AEROAPLICACIONES,Aeródromo
BRA,-60.48194444,-35.14527778,BRAGADO,Aeródromo
BRF,-63.28722,-38.7305,BAHÍA BLANCA/LA REFORMA,Aeródromo
BRQ,-69.60972222,-37.195,BUTA RANQUIL/EL PORTÓN,Aeródromo
BTA,-59.03805556,-28.52611111,BELLA VISTA,Aeródromo
BTS,-62.15138889,-33.28138889,CORRAL DE BUSTOS,Aeródromo
CAF,-65.93055556,-26.06416667,CAFAYATE,Aeródromo
CAL,-66.58638889,-27.07222222,CAMPO ARENAL,Aeródromo
CAM,-64.27944444,-32.02444444,CORRALITO/ALFONSO MENGO,Aeródromo
CAT,-65.75111111,-28.59305556,CATAMARCA,Aeródromo
CAY,-59.63027778,-38.33388889,SAN CAYETANO,Aeródromo
CBA,-64.20833333,-31.31,CÓRDOBA/ING. AER. A. L. V. TARAVELLA,Aeródromo
CBB,-61.63196,-32.11159,CAÑADA ROSQUIN/ByB SERVICIOS AGROPECUARIOS,Aeródromo
CBD,-61.88416667,-38.49861111,CABILDO,Aeródromo
CCA,-57.98277778,-29.7725,CURUZÚ CUATIÁ,Aeródromo
CCH,-61.405525,-35.6698945,CARLOS CASARES/HAYDEE,Aeródromo
CCI,-60.29201667,-29.85157222,CALCHAQUÍ,Aeródromo
CCM,-61.36821,-35.56915,CARLOS CASARES/MALATINI,Aeródromo
CCO,-61.35038,-35.64817,CARLOS CASARES/OTTAVIANI,Aeródromo
CCP,-65.61694444,-27.34472222,CONCEPCIÓN,Aeródromo
CCS,-66.1572,-25.10518,CACHI,Aeródromo
CDA,-60.62857,-33.46586,SARGENTO CABRAL/CONDOR DEL AIRE,Aeródromo
CDI,-61.12414,-32.89099,CARCARAÑÁ/DI GIUSEPPE,Aeródromo
CDL,-63.74818,-30.75769,CAÑADA DE LUQUE/BIONDI,Aeródromo
CDS,-67.55972222,-46.53805556,CAÑADÓN SECO,Aeródromo
CDU,-58.30666667,-32.455,CONCEPCIÓN DEL URUGUAY,Aeródromo
CED,-65.42051,-33.6422,MERCEDES,Aeródromo
CEJ,-64.74583333,-26.86972222,LAS CEJAS/AGROALAS SRL,Aeródromo
CFU,-62.78055556,-37.21472222,CARHUE/FUMAGRO,Aeródromo
CHA,-61.21011,-27.21639,CHARATA,Aeródromo
CHC,-58.29287,-30.53899,CHAJARI/EA. LA CHOZA,Aeródromo
CHJ,-58.00002,-30.7539,CHAJARI,Aeródromo
CHM,-70.22305556,-37.44416667,CHOS MALAL,Aeródromo
CHO,-71.45682,-42.4806,CHOLILA,Aeródromo
CHP,-71.13722222,-40.07527778,SAN MARTÍN DE LOS ANDES/AVIADOR C. CAMPOS,Aeródromo
CHR,-65.64701,-37.34005,CHACHARRAMENDI,Aeródromo
CHT,-61.21041,-27.30629,CHARATA/EL GRINGO,Aeródromo
CHY,-60.03222222,-34.9625,CHIVILCOY,Aeródromo
CIF,-60.04602,-34.07849,ARRECIFES/AEROCLUB,Aeródromo
CII,-57.42222222,-27.44833333,CORRIENTES/ITA IBATE,Aeródromo
CIP,-67.98888889,-38.89277778,CIPOLLETTI/AEROCLUB,Aeródromo
CIT,-58.31527778,-27.30333333,CORRIENTES/ITATI,Aeródromo
CLD,-62.03693,-33.3391,CHAÑAR LADEADO,Aeródromo
CLE,-64.16972222,-32.08805556,CORRALITO/LOMAS DEL ESPINILLO,Aeródromo
CLH,-68.96583,-46.53848,LAS HERAS,Aeródromo
CLI,-64.74972222,-23.78166667,CALILEGUA,Aeródromo
CLN,-58.15611111,-32.26083333,COLÓN,Aeródromo
CLT,-67.82881,-37.90819,COLONIA CATRIEL,Aeródromo
CNA,-58.72638889,-35.11166667,CAÑUELAS,Aeródromo
CNO,-59.87444444,-34.41805556,CARMEN DE ARECO,Aeródromo
CNS,-62.86911,-33.56247,CANALS,Aeródromo
COA,-62.37505556,-33.66431111,ARIAS,Aeródromo
COL,-64.14027778,-38.995,RÍO COLORADO,Aeródromo
CON,-61.04638889,-33.9225,COLÓN,Aeródromo
CPO,-58.672,-34.53433,CAMPO DE MAYO,Aeródromo
CQN,-64.45555556,-31.28583333,COSQUIN/SANTA MARÍA,Aeródromo
CQZ,-58.7175,-27.54972222,CAÑADA QUIROZ,Aeródromo
CRD,-58.015,-31.30388889,CONCORDIA/AEROCLUB,Aeródromo
CRR,-58.76194444,-27.44555556,CORRIENTES,Aeródromo
CRV,-67.46555556,-45.78527778,COMODORO RIVADAVIA/GRAL. E. MOSCONI,Aeródromo
CSA,-63.27608,-31.65737,CALCHÍN/AEROCAMPO SERVICIOS AÉREOS,Aeródromo
CSJ,-62.01466,-30.77697,MORTEROS/CAMPO SAN JOSÉ,Aeródromo
CSP,-59.69444444,-34.04027778,CAPITÁN SARMIENTO/SAN PATRICIO,Aeródromo
CSQ,-59.87336,-34.15622,CAPITÁN SARMIENTO/QUEBRACHO HERRADO,Aeródromo
CSR,-61.39401,-35.6298,CARLOS CASARES,Aeródromo
CSU,-58.01428056,-30.80216944,CHAJARI/SUR,Aeródromo
CTA,-60.55343,-38.74354,COPETONAS,Aeródromo
CTP,-63.43305556,-36.48861111,CATRILO/ESTABLECIMIENTO LA MARIA PILAR,Aeródromo
CTS,-59.73148,-34.16435,CAPITÁN SARMIENTO,Aeródromo
CUA,-64.33722222,-33.16055556,RÍO CUARTO/AEROCLUB,Aeródromo
CUM,-64.5321,-31.00589,LA CUMBRE,Aeródromo
CUT,-69.265,-38.93972222,CUTRAL-CO,Aeródromo
CVV,-64.90111111,-34.35638889,VILLA VALERIA,Aeródromo
CZU,-58.09694444,-29.77888889,CURUZÚ CUATIÁ/AEROCLUB,Aeródromo
DAR,-63.16253,-37.7122,DARREGUEIRA,Aeródromo
DFR,-61.77504,-36.59076,DAIREAUX/FUMIGACIONES RODRIGUEZ,Aeródromo
DIA,-57.99666667,-31.29694444,CONCORDIA/COMODORO PIERRESTEGUI,Aeródromo
DIL,-59.22858611,-37.23437778,TANDIL/HÉROES DE MALVINAS,Aeródromo
DIO,-58.98268,-37.34678,TANDIL/COMANDANTE EDUARDO A. OLIVERO,Aeródromo
DOF,-61.55366,-35.27799,MARTINEZ DE HOZ/FUMIGACIONES ORTEGA,Aeródromo
DOL,-57.72055556,-36.32,DOLORES,Aeródromo
DOP,-68.87395,-32.96254,MENDOZA/LA PUNTILLA,Aeródromo
DOR,-61.25583333,-38.74111111,CORONEL DORREGO,Aeródromo
DOZ,-68.79277778,-32.83166667,MENDOZA/EL PLUMERILLO,Aeródromo
DRA,-62.33392,-37.74961,SAAVEDRA,Aeródromo
DRX,-61.78416667,-36.58277778,DAIREAUX,Aeródromo
DRY,-65.10277778,-42.75916667,PUERTO MADRYN/EL TEHUELCHE,Aeródromo
DTE,-60.58329,-32.01621,DIAMANTE,Aeródromo
EAU,-68.30416667,-54.82277778,USHUAIA/EST. AERONAVAL,Aeródromo
EBF,-60.89944444,-31.40555556,ESPERANZA/ANIBAL BRIZI,Aeródromo
ECA,-72.05305556,-50.28,EL CALAFATE,Aeródromo
ECX,-64.275,-35.88222222,EDUARDO CASTEX,Aeródromo
EDO,-64.14083,-31.48679,CORONEL OLMEDO,Aeródromo
EGO,-61.54444444,-32.62944444,LAS PAREJAS/EL GAUCHO,Aeródromo
ELC,-60.12916667,-35.53666667,VEINTICINCO DE MAYO/ESTANCIA LA CRIOLLA,Aeródromo
ELD,-54.57472222,-26.39694444,ELDORADO,Aeródromo
ELL,-58.105,-38.30861111,MAR DEL SUR/EA. LUCILA,Aeródromo
ELP,-64.18672,-36.59712,SANTA ROSA/EL PAMPERO,Aeródromo
ELZ,-57.9625,-34.975,ELIZALDE,Aeródromo
EMA,-71.17083333,-42.03,EL MAITÉN,Aeródromo
EML,-58.35994,-35.19441,CORONEL BRANDSEN/EL MANANTIAL,Aeródromo
ENO,-58.78972222,-34.56,MARIANO MORENO,Aeródromo
ENV,-58.819,-27.58744,RIACHUELO/NUEVA VALENCIA,Aeródromo
EPZ,-60.84527778,-31.47333333,ESPERANZA,Aeródromo
ERE,-61.92696,-29.87161,CERES,Aeródromo
ERT,-65.36657,-34.0011,VILLA MERCEDES/EA. DON ROBERTO,Aeródromo
ESN,-59.53521,-30.04762,ESQUINA,Aeródromo
ESQ,-71.13554,-42.90381,ESQUEL/BRIGADIER GENERAL ANTONIO PARODI,Aeródromo
ESR,-58.59132,-25.04338,EL ESPINILLO/ESTANCIA SAN RAFAEL,Aeródromo
ETB,-61.71634,-32.2162,EL TREBOL,Aeródromo
EVC,-56.07106,-28.04099,GDOR. VALENTIN VIRASORO/EA. VILLA CORINA,Aeródromo
EZA,-58.39961,-30.52042,LOS CONQUISTADORES/BUENA ESPERANZA,Aeródromo
EZE,-58.53583333,-34.82222222,EZEIZA/MINISTRO PISTARINI,Aeródromo
EZP,-58.20333333,-34.74638889,EZPELETA,Aeródromo
FAE,-61.51124,-33.42909,FIRMAT/AEROCLUB,Aeródromo
FAG,-58.70666667,-30.85222222,FEDERAL/LA ANGELITA,Aeródromo
FDD,-63.32305556,-23.2425,FORTÍN DRAGONES/EL DESAFÍO,Aeródromo
FDO,-58.59091,-34.45454,SAN FERNANDO,Aeródromo
FIM,-61.50111111,-33.46805556,FIRMAT,Aeródromo
FLO,-59.10055556,-36.06638889,LAS FLORES,Aeródromo
FMA,-64.25847,-31.44195,CÓRDOBA/CAPITÁN D. OMAR DARIO GELARDI,Aeródromo
FOR,-58.29833333,-26.30138889,FORMOSA/AEROCLUB,Aeródromo
FRA,-62.13305556,-31.41305556,SAN FRANCISCO,Aeródromo
FRO,-64.96323,-25.82616,ROSARIO DE LA FRONTERA,Aeródromo
FRS,-65.11333333,-28.62861111,FRÍAS,Aeródromo
FSA,-58.22805556,-26.21277778,FORMOSA,Aeródromo
FUN,-64.37973,-30.37934,DEAN FUNES,Aeródromo
FVA,-58.31666667,-34.82666667,FLORENCIO VARELA/EL PÁJARO,Aeródromo
GAA,-59.43992,-33.03832,GUALEGUAY/AGROAEREO GUALEGUAY,Aeródromo
GAI,-61.65877,-27.49486,GANCEDO/AGROAIRE,Aeródromo
GAL,-69.31217,-51.60881,RÍO GALLEGOS/PILOTO CIVIL NORBERTO FERNANDEZ,Aeródromo
GAR,-59.90699,-35.97895,GENERAL ALVEAR,Aeródromo
GAS,-62.99883,-34.99615,GENERAL VILLEGAS,Aeródromo
GBE,-58.46327,-35.75191,GENERAL BELGRANO,Aeródromo
GBL,-65.41888889,-24.74583333,SALTA/GENERAL BELGRANO,Aeródromo
GCR,-60.36916667,-30.38722222,GOBERNADOR CRESPO/AEROCLUB,Aeródromo
GDH,-63.79611111,-32.745,GENERAL DEHEZA,Aeródromo
GDO,-61.64441,-27.47845,GANCEDO/PULVERIZACIONES.M.H.,Aeródromo
GEP,-58.25388889,-32.97472222,GUALEGUAYCHÚ/EL POTRERO,Aeródromo
GES,-57.02388889,-37.23444444,VILLA GESELL,Aeródromo
GEZ,-59.03583333,-34.68027778,GENERAL RODRIGUEZ/EAA,Aeródromo
GIL,-59.42472222,-34.47027778,SAN ANDRÉS DE GILES,Aeródromo
GIT,-59.17949,-29.15852,GOYA/ITALAVIATION,Aeródromo
GLH,-58.91638889,-34.92055556,GENERAL LAS HERAS,Aeródromo
GLM,-58.52222222,-32.9775,GUALEGUAYCHÚ/BLM CABAÑAS,Aeródromo
GLP,-58.56483,-32.9414,GUALEGUAYCHÚ/EA. LA PROVIDENCIA,Aeródromo
GNA,-67.69319,-35.05939,GENERAL ALVEAR,Aeródromo
GNR,-67.61972222,-39,GENERAL ROCA/DR. ARTURO HUMBERTO ILLIA,Aeródromo
GNV,-61.02083333,-34.97722222,GENERAL VIAMONTE/LOS TOLDOS,Aeródromo
GOC,-59.83415,-33.66857,GOBERNADOR CASTRO/EL GIRASOL,Aeródromo
GOM,-61.36579,-32.80887,CAÑADA DE GÓMEZ,Aeródromo
GOR,-66.29403,-30.34416,GOBERNADOR GORDILLO/CHAMICAL,Aeródromo
GOY,-59.21874,-29.10595,GOYA,Aeródromo
GOZ,-58.0858,-35.09556,GÓMEZ,Aeródromo
GPF,-63.71805556,-35.67361111,GENERAL PICO/CEREALES ANAHÍ RUCA,Aeródromo
GPI,-63.75888889,-35.69472222,GENERAL PICO,Aeródromo
GPK,-61.47444444,-27.26027778,GENERAL PINEDO/KALBERMATTER,Aeródromo
GPO,-61.27484,-27.34401,GENERAL PINEDO,Aeródromo
GRA,-67.74952,-53.7776,RÍO GRANDE,Aeródromo
GRE,-70.16222222,-48.78333333,GOBERNADOR GREGORES,Aeródromo
GRZ,-59.00055556,-34.58277778,GENERAL RODRIGUEZ,Aeródromo
GSE,-56.88124,-29.30444,GUAVIRAVÍ/EA. SANTA ELISA,Aeródromo
GTE,-63.55708,-37.70516,GUATRACHE,Aeródromo
GUA,-58.61277778,-33.00555556,GUALEGUAYCHÚ,Aeródromo
GVA,-67.72416667,-34.96972222,GENERAL ALVEAR/AEROCLUB,Aeródromo
GVZ,-60.13388889,-38.03305556,GONZALEZ CHAVES,Aeródromo
GYA,-59.24699,-29.16975,GOYA/AEROCLUB,Aeródromo
GYT,-64.52869,-26.57916,GOBERNADOR GARMENDIA/AGRO SERVICIO YORIS,Aeródromo
HAB,-68.385833,-52.519167,HELIPLATAFORMA AM1,Helipuerto
HAC,-64.716543,-32.689893,ALPA CORRAL/JUAN Y LUCI,Helipuerto
HAD,-68.3125,-52.548889,HELIPLATAFORMA AM2,Helipuerto
HAG,-58.970859,-34.53325,LUJAN/SOL DE AGOSTO,Helipuerto
HAI,-64.497037,-31.41415,VILLA CARLOS PAZ/NORBERTO CORDEIRO,Helipuerto
HAM,-68.280833,-52.522778,HELIPLATAFORMA AM3,Helipuerto
HAS,-60.50083333,-31.70861111,PARANÁ/AMARRAS DEL SOL,Helipuerto
HAT,-64.314603,-32.20354,ALMAFUERTE/TRANSENER S.A.,Helipuerto
HAU,-58.460425,-34.693918,BUENOS AIRES/AUTÓDROMO CIUDAD DE BS. AS.,Helipuerto
HBA,-71.36568,-41.161161,SAN CARLOS DE BARILOCHE/ARELAUQUEN,Helipuerto
HBC,-58.409441,-34.64073,BUENOS AIRES/B. CHURRUCA,Helipuerto
HBI,-64.173382,-31.420398,CÓRDOBA/HELIPUERTO CENTRO CÍVICO BICENTENARIO,Helipuerto
HBM,-58.344913,-34.621535,BUENOS AIRES/MADERO,Helipuerto
HBO,-65.163478,-26.993528,EL BRACHO/TRANSENER S.A.,Helipuerto
HBP,-62.293984,-38.77345,BAHÍA BLANCA/PBB POLISUR S.A.,Helipuerto
HBR,-64.34373,-31.439765,CÓRDOBA/BERRINI,Helipuerto
HBT,-57.92948611,-34.90044444,LA PLATA,Helipuerto
HCA,-56.678721,-36.666985,COSTA AZUL/LA CALDERA,Helipuerto
HCC,-65.68877,-39.566662,CHOEL  CHOEL/TRANSENER S.A.,Helipuerto
HCD,-71.366646,-40.044053,SAN MARTÍN DE LOS ANDES/EA. LA CANDELARIA,Helipuerto
HCE,-68.178889,-52.836389,HELIPLATAFORMA/RÍO CULLEN-HIDRACENTRO TOTAL AUSTRAL,Helipuerto
HCG,-58.719844,-34.912354,EZEIZA/TRANSENER S.A.,Helipuerto
HCI,-58.78852,-34.378674,BELÉN DE ESCOBAR/CABAÑA SAN ISIDRO LABRADOR I,Helipuerto
HCL,-70.513907,-39.884782,CATAN LIL/EA. SANTA ISABEL,Helipuerto
HCN,-64.439904,-32.229454,EMBALSE/CENTRAL NUCLEAR,Helipuerto
HCO,-59.315902,-34.232743,CHENAUT/EL CAPRICHO,Helipuerto
HCP,-68.572493,-52.738661,YACIMIENTO CAÑADON ALFA/TOTAL AUSTRAL S.A.,Helipuerto
HCR,-68.579397,-33.099208,BARREALES - GRAN MENDOZA/TRANSENER S.A.,Helipuerto
HCS,-59.170276,-34.307048,CAPILLA DEL SEÑOR/LAS ARAUCARIAS,Helipuerto
HCT,-58.999307,-34.174379,CAMPANA/TRANSENER S.A.,Helipuerto
HCU,-64.190266,-31.440805,CÓRDOBA/CIUDAD UNIVERSITARIA,Helipuerto
HCV,-68.408453,-52.330311,CABO VÍRGENES/BRM CABO VÍRGENES,Helipuerto
HDA,-58.351532,-34.627862,BUENOS AIRES/DARSENA SUR,Helipuerto
HDI,-58.400458,-34.572579,BUENOS AIRES/DINES DR. E. ESCUDERO,Helipuerto
HDL,-71.16995,-39.815579,JUNÍN DE LOS ANDES/CASA DE LATA,Helipuerto
HDR,-60.709211,-32.851806,GRANADERO BAIGORRIA/HOSPITAL R. CARRILLO,Helipuerto
HDS,-61.74777778,-36.31527778,HENDERSON,Aeródromo
HDT,-58.608031,-34.496085,DON TORCUATO/TIMEN S.A.,Helipuerto
HEA,-68.127778,-52.608333,HELIPLATAFORMA AM6,Helipuerto
HEC,-57.991881,-34.940786,LA PLATA/ECODYMA S.C.A.,Helipuerto
HEN,-68.266107,-53.32299,BAHÍA SAN SEBASTIÁN/PLANTA CRUZ DEL SUR,Helipuerto
HES,-68.041944,-52.683056,ARIES/TOTAL FINA,Helipuerto
HET,-64.265127,-27.781396,SANTIAGO DEL ESTERO/HELIPUERTO EDIFICIO TRIBUNALES,Helipuerto
HEV,-58.384984,-34.834672,ALMIRANTE BROWN/DESTACAMENTO POLICIAL EL VAPOR,Helipuerto
HFA,-58.368051,-34.58598,BUENOS AIRES/FUERZA AÉREA,Helipuerto
HFC,-65.495501,-24.770405,SALTA/FINCA LAS COSTAS,Helipuerto
HFV,-58.250221,-34.916875,FLORENCIO VARELA/COLONIA LA CAPILLA,Helipuerto
HGA,-58.788161,-35.058342,CAÑUELAS/CAÑUELAS GAS S.A.,Helipuerto
HGB,-65.451084,-24.780762,SALTA/CENTRO CÍVICO GRAND BOURG,Helipuerto
HGM,-58.658271,-34.776299,GONZALEZ CATÁN/LAR DE PAZ S.A.,Helipuerto
HGN,-58.374528,-34.582445,BUENOS AIRES/CENTINELA,Helipuerto
HGS,-61.3375,-33.81111111,HUGHES/PLUS AGROSERVICIOS AÉREOS,Aeródromo
HHL,-70.677494,-38.548178,LAS LAJAS/EA. HAYCHOL,Helipuerto
HHM,-65.415621,-24.772921,SALTA/HOSPITAL DE MILAGRO,Helipuerto
HHT,-58.606915,-34.492668,DON TORCUATO/TECNOCOPTER S.A.,Helipuerto
HHW,-58.751782,-34.634199,MORENO/HELIWEST,Helipuerto
HIL,-63.079953,-35.081749,GRAL. VILLEGAS/SAN ISIDRO LABRADOR II,Helipuerto
HIS,-58.601878,-34.791733,LA MATANZA/CAMPANÓPOLIS,Helipuerto
HIT,-56.658294,-27.558575,ITUZAINGÓ/TRANSENER,Helipuerto
HJN,-71.046426,-39.852774,JUNÍN DE LOS ANDES/EA. PALITUE,Helipuerto
HLE,-71.607697,-41.70337,LAGO ESCONDIDO/HIDDEN LAKE S.A.,Helipuerto
HLF,-59.118616,-34.2816,CAPILLA DEL SEÑOR/LOS FRESNOS,Helipuerto
HLH,-59.045919,-34.557353,LUJÁN/HOMAQ,Helipuerto
HLI,-58.606884,-34.497531,DON TORCUATO/HELICENTER,Helipuerto
HLL,-71.533825,-41.054659,SAN CARLOS DE BARILOCHE/COMPLEJO LLAO LLAO,Helipuerto
HLP,-57.893075,-34.959802,LA PLATA/HELIPUERTO D.P.A.O.,Helipuerto
HLR,-58.900427,-34.270449,LOS CARDALES/LA RESERVA,Helipuerto
HLS,-59.015184,-34.500721,OPEN DOOR/LA SUPERBA,Helipuerto
HLT,-58.863589,-34.404632,VILLA ROSA/LAS CHACRITAS,Helipuerto
HLU,-66.066423,-32.366669,LUJÁN/TRANSENER S.A.,Helipuerto
HMA,-58.195412,-34.815509,HUDSON/MANUEL AFONSO,Helipuerto
HMC,-58.734061,-34.445915,GARÍN/MIRAFLORES COUNTRY CLUB,Helipuerto
HMD,-58.429528,-34.581053,BUENOS AIRES/HELIPUERTO SWISS MEDICAL,Helipuerto
HME,-58.836706,-34.444449,PILAR/MEMORIAL,Helipuerto
HMF,-58.514923,-34.723585,LA MATANZA/OFICIAL SUBINSPECTOR GUSTAVO SOAREZ DE SOUZA,Helipuerto
HMG,-58.36092778,-34.62097778,BUENOS AIRES / MADERO HARBOUR,Helipuerto
HMH,-58.510795,-34.171041,SAN FERNANDO/PARANÁ MINÍ,Helipuerto
HMM,-58.790569,-34.562908,DR. MARIANO MORENO,Helipuerto
HMQ,-68.253333,-52.570556,HELIPLATAFORMA AM5,Helipuerto
HMT,-63.913851,-31.3392,MONTE CRISTO/TRANSENER S.A.,Helipuerto
HMY,-58.557711,-34.731886,LA MATANZA/TERMINAL Y.P.F.,Helipuerto
HNB,-58.642147,-34.439639,TIGRE/NORDELTA,Helipuerto
HNE,-63.22409,-32.437713,VILLA NUEVA/DAYRY PARTNERS AMERICAS MANUFACTURING ARGENTINA S.A,Helipuerto
HNH,-67.220278,-53.098333,HELIPLATAFORMA NOBLE HOUSTON COLBERT,Helipuerto
HNO,-68.219167,-52.820556,HELIPLATAFORMA/RÍO CULLEN-HIDRANORT,Helipuerto
HNP,-58.393835,-34.63098,BUENOS AIRES/HOSPITAL NACIONAL DE PEDIATRÍA PROF. JUAN GARRAHAM,Helipuerto
HOB,-64.397768,-31.633061,ALTA GRACIA/ORESTE BERTA,Helipuerto
HOC,-66.41666667,-52.83333333,HELIPLATAFORMA OCEANIC CHAMPION,Helipuerto
HOS,-67.433333,-46.466667,HELIPLATAFORMA MÓVIL OCEAN SCEPTER,Helipuerto
HPA,-58.368322,-34.606433,BUENOS AIRES/PRESIDENCIA DE LA NACIÓN,Helipuerto
HPC,-64.199434,-31.40821,CÓRDOBA/POLICIA PROVINCIA DE CÓRDOBA,Helipuerto
HPD,-68.867744,-32.878387,MENDOZA/POLICIA DE LA PROVINCIA DE MENDOZA,Helipuerto
HPE,-60.521265,-31.730027,PARANÁ/HOSPITAL MATERNO INFANTIL SAN ROQUE,Helipuerto
HPG,-70.042408,-40.161297,PIEDRA DEL ÁGUILA/TRANSENER S.A.,Helipuerto
HPI,-58.972486,-34.433128,PILAR GOLF/PIERO VARA,Helipuerto
HPL,-66.863203,-29.435592,LA RIOJA/HELIPUERTO POLICIA PROVINCIAL C.A.P.E.,Helipuerto
HPM,-57.921928,-34.924584,LA PLATA/POLICLÍNICO SAN MARTÍN,Helipuerto
HPN,-58.383829,-34.577207,BUENOS AIRES/P.N.A. OF. PPAL. BALLESTRA,Helipuerto
HPO,-54.638298,-25.99034,PUERTO ESPERANZA,Helipuerto
HPS,-70.41209,-31.760056,PACHÓN/HELIPUERTO PACHÓN MINERA S.A.,Helipuerto
HPT,-60.72647778,-32.71917778,SAN MARTÍN/COOPERATIVA DE TRABAJOS PORTUARIOS LIMITADA,Helipuerto
HPU,-65.824946,-38.147703,PUELCHES/TRANSENER S.A.,Helipuerto
HRC,-59.721463,-34.338474,CARMEN DE ARECO/SAN JOAQUÍN,Helipuerto
HRE,-65.058247,-29.262769,RECREO/TRANSENER S.A.,Helipuerto
HRI,-67.219444,-52.757222,HELIPLATAFORMA CARINA/TOTAL FINA ELF,Helipuerto
HRM,-71.285379,-40.152264,SAN MARTÍN DE LOS ANDES/RANCHO DE MONTAÑA,Helipuerto
HRR,-62.83505,-32.586092,MORRISON,Helipuerto
HRT,-59.764765,-29.461483,ROMANG/TRANSENER S.A.,Helipuerto
HRW,-67.21324,-54.23355,RÍO GRANDE/EA. RÍO EWAN,Helipuerto
HSC,-58.61566667,-34.90202778,SPEGAZZINI/CENTRAL TÉRMICA,Helipuerto
HSD,-58.840928,-34.600466,MORENO/COUNTRY CLUB SAN DIEGO,Helipuerto
HSG,-58.421945,-34.59703,BUENOS AIRES/SANATORIO GÜEMES,Helipuerto
HSH,-59.449417,-34.448879,SAN ANDRÉS DE GILES/HOSPITAL MUNICIPAL,Helipuerto
HSJ,-58.02205,-29.60179,CURUZÚ CUATIÁ/EA. SAN JUAN,Aeródromo
HSM,-58.507365,-34.414724,TIGRE/ISLA SANTA MÓNICA,Helipuerto
HSN,-60.249353,-33.358932,SAN NICOLÁS DE LOS ARROYOS/MIGUEL COLOMBISE,Helipuerto
HSR,-69.917664,-50.303036,SANTA CRUZ/EA. SAN RAMÓN,Helipuerto
HSW,-67.96400424,-53.07649481,HELIPLATAFORMA SWIBER PJW3000,Helipuerto
HTA,-58.240705,-32.548188,CONCEPCIÓN DEL URUGUAY/HELIPUERTO TALITAS,Helipuerto
HTD,-58.966403,-37.393711,TANDIL/EA. LA PASCUALA,Helipuerto
HTE,-65.372347,-24.836242,SALTA/TEMET,Helipuerto
HTL,-62.641667,-35.913333,TRENQUE LAUQUEN/EA. LA CHACOTA,Helipuerto
HTS,-71.967747,-51.685796,EL TURBIO/EA. SANTA ANA,Helipuerto
HUE,-62.78138889,-37.19388889,CARHUÉ,Aeródromo
HUG,-61.95324,-37.05267,HUANGUELÉN,Aeródromo
HUI,-64.37412,-34.82041,HUINCA RENANCÓ,Aeródromo
HUM,-61.14256,-31.38986,HUMBOLDT/ESTABLECIMIENTO LA ADELITA,Aeródromo
HUP,-60.016667,-36.044444,GENERAL ALVEAR/UNIDAD PENITENCIARIA N° 30,Helipuerto
HUU,-60.159541,-35.423236,HELIPUERTO SATURNINO UNZUÉ,Helipuerto
HVA,-58.655755,-34.375231,TIGRE/VILLA LA ÑATA,Helipuerto
HVM,-58.505501,-34.557728,VILLA MARTELLI/CITEFA,Helipuerto
HWG,-66.81666667,-52.9,BUQUE W. G. VESPUCCI,Helipuerto
HYC,-64.780353,-32.05978,YACANTO DE CALAMUCHITA/ROCA VAL,Helipuerto
HZA,-57.64277778,-36.77583333,MAIPÚ/ESTABLECIMIENTO EL ARAZA,Aeródromo
IAA,-63.61052,-35.18862,INTENDENTE ALVEAR/AZCARATE IRATORSA,Aeródromo
IAC,-65.57207,-22.16195,LA QUIACA/DR. GUILLERMO EUGENIO SNOPEK,Aeródromo
IAL,-63.56571,-35.23368,INTENDENTE ALVEAR,Aeródromo
IBA,-60.50444444,-34.27777778,INES INDART/BELINGUERES AVIACIÓN,Aeródromo
IBY,-58.68099,-33.7439,ISLAS DEL IBICUY,Aeródromo
ICO,-67.55888889,-45.90416667,COMODORO RIVADAVIA/13 DE DICIEMBRE,Aeródromo
IGL,-64.47527,-35.35546,INGENIERO LUIGGI,Aeródromo
IGU,-54.47354,-25.73722,CATARATAS DEL  IGUAZÚ/MY. D. CARLOS EDUARDO KRAUSE,Aeródromo
IJC,-69.57611111,-41.32111111,INGENIERO JACOBACCI/CABO F.A.A. H. R. BORDÓN,Aeródromo
ILD,-61.20973,-33.06242,CASILDA,Aeródromo
ILM,-58.24461,-34.70643,QUILMES,Aeródromo
IRA,-57.87083333,-38.22611111,MIRAMAR,Aeródromo
IRI,-53.67257,-26.28171,BERNARDO DE IRIGOYEN,Aeródromo
ITO,-67.43944444,-29.22333333,CHILECITO/BRIG. MY. JUAN FACUNDO QUIROGA,Aeródromo
IVB,-62.41538,-33.24674,ISLA VERDE/D. HÉCTOR BIONDI,Aeródromo
IVL,-62.40464,-33.2232,ISLA VERDE/BIONDI,Aeródromo
JAH,-71.17,-39.70388889,JUNÍN DE LOS ANDES/HOSTERIA SAN HUBERTO,Aeródromo
JAR,-63.42902,-38.066,JACINTO ARAUZ,Aeródromo
JBA,-61.90455,-34.48351,JUAN BAUTISTA ALBERDI,Aeródromo
JCM,-64.16064,-31.21113,JUÁREZ CELMAN/BRIG. MY. JUAN IGNACIO SAN MARTÍN,Aeródromo
JDA,-55.19805556,-27.0325,JARDÍN DE AMÉRICA,Aeródromo
JES,-64.07797,-30.9883,JESÚS MARÍA,Aeródromo
JGA,-64.08135,-25.1866,JOAQUIN V. GONZALEZ/AGROPECUARIA RÍO JURAMENTO,Aeródromo
JLA,-70.86537,-39.84555,JUNÍN DE LOS ANDES/SAN IGNACIO,Aeródromo
JMB,-62.87927,-36.44296,TRES LOMAS,Aeródromo
JOC,-63.96055556,-34.53194444,JOVITA/ANTARES,Aeródromo
JOR,-61.84333333,-31.88277778,SAN JORGE,Aeródromo
JRZ,-59.79194444,-37.70611111,JUÁREZ,Aeródromo
JSM,-70.44638889,-44.04722222,JOSÉ DE SAN MARTÍN,Aeródromo
JUA,-68.41833333,-31.57138889,SAN JUAN/DOMINGO FAUSTINO SARMIENTO,Aeródromo
JUJ,-65.09777778,-24.3925,JUJUY/GOBERNADOR GUZMÁN,Aeródromo
LAE,-65.37055556,-44.57277778,PUNTA ROJA/EA. LA ELBA,Aeródromo
LAM,-61.27888889,-37.22611111,GENERAL LAMADRID,Aeródromo
LAN,-59.67277778,-28.8575,LANTERI,Aeródromo
LAR,-66.79583333,-29.38055556,LA RIOJA/CAP. VICENTE A. ALMONACID,Aeródromo
LAU,-62.69388889,-36.01583333,TRENQUE LAUQUEN,Aeródromo
LAZ,-59.56887,-30.74368,LA PAZ/AEROCLUB,Aeródromo
LBI,-58.7872,-38.18951,LOBERIA,Aeródromo
LCC,-63.30551,-33.38823,LA CARLOTA/CASAJUS,Aeródromo
LCP,-70.64406,-38.08177,LONCOPUÉ,Aeródromo
LCT,-63.31375,-33.45761,LA CARLOTA,Aeródromo
LDA,-57.87667,-35.86972,LEZAMA/DON ALBERTO,Aeródromo
LDG,-61.0091,-34.65469,LAGUNA DE GÓMEZ,Aeródromo
LDR,-65.1475,-31.9475,VILLA DOLORES,Aeródromo
LEN,-58.79888889,-34.29861111,BELÉN DE ESCOBAR,Aeródromo
LEO,-62.31681,-32.64264,LEONES,Aeródromo
LGM,-69.07713,-45.57506,SARMIENTO/LAGO MUSTERS,Aeródromo
LHP,-69.28694444,-46.19194444,LAS HERAS/LOS PERALES,Aeródromo
LIB,-57.15222222,-29.68805556,PASO DE LOS LIBRES,Aeródromo
LIN,-61.53138889,-34.89083333,LINCOLN,Aeródromo
LIO,-60.93333333,-35.39944444,NUEVE DE JULIO,Aeródromo
LJN,-59.07916667,-34.55055556,LUJÁN,Aeródromo
LLA,-64.235,-24.74888889,LAS LAJITAS/AEROSOLUCIONES,Aeródromo
LLC,-58.34472222,-34.8625,LONGCHAMPS/LA CAÍDA,Aeródromo
LLE,-57.83833,-29.9951,LIBERTAD/LA ESMERALDA,Aeródromo
LLJ,-70.3367,-38.53828,LAS LAJAS,Aeródromo
LMD,-59.34998,-38.00845,JUAN N. FERNÁNDEZ/LA MADRUGADA,Aeródromo
LMF,-61.31628,-33.07912,LOS MOLINOS/ESTABLECIMIENTO LA FLORENCIA,Aeródromo
LNH,-71.17678,-41.09725,LAGO NAHUEL HUAPI,Aeródromo
LNV,-61.30217,-34.94464,LINCOLN/LA NUEVA,Aeródromo
LPB,-68.94984,-49.99499,COMANDANTE LUIS PIEDRABUENA,Aeródromo
LPP,-58.66944444,-27.08777778,LAS PALMAS/PETRUK,Aeródromo
LPR,-60.77833333,-37.52083333,LAPRIDA,Aeródromo
LRE,-64.88463,-26.73288,LA RAMADA DE ABAJO/DON EMILIO,Aeródromo
LRS,-61.58166667,-32.49305556,LAS ROSAS,Aeródromo
LRT,-61.55083333,-32.52027778,LAS ROSAS/HORIZONTE APLICACIONES AÉREAS,Aeródromo
LVA,-62.63027778,-31.81722222,LAS VARAS/MACIAS,Aeródromo
LVL,-62.70472222,-31.89166667,LAS VARILLAS,Aeródromo
LVM,-59.12727,-34.6436,LUJÁN/EA. VILLA MARÍA,Aeródromo
LVR,-62.84449,-31.85801,LAS VARILLAS/GINEVRO,Aeródromo
LYE,-63.36237,-34.13544,LABOULAYE,Aeródromo
LZA,-71.80522,-42.21713,LAGO LA ESPERANZA,Aeródromo
MAB,-62.12792,-33.78639,MAGGIOLO/SAMAVE,Aeródromo
MAC,-63.67893,-37.14581,MACACHIN,Aeródromo
MAD,-57.13638889,-37.03861111,GENERAL MADARIAGA,Aeródromo
MAI,-62.63111111,-33.21111111,MONTE MAIZ,Aeródromo
MAO,-67.65938,-37.80974,VEINTICINCO DE MAYO,Aeródromo
MAQ,-68.70828,-41.24288,MAQUINCHAO,Aeródromo
MAT,-58.50055556,-34.72833333,MATANZA,Aeródromo
MAY,-60.08861111,-35.44638889,VEINTICINCO DE MAYO,Aeródromo
MBF,-62.43474,-32.93173,MONTE BUEY/PEDRO FERRARI,Aeródromo
MBI,-56.63085,-64.23913,VICECOMODORO MARAMBIO,Aeródromo
MBL,-58.13353,-38.38559,MIRAMAR/BELLAMAR,Aeródromo
MCL,-64.98777778,-31.73027778,MINA CLAVERO,Aeródromo
MCO,-68.07203,-40.81596,LOS MENUCOS,Aeródromo
MCP,-57.96833333,-30.38722222,MONTE CASEROS/EL PILINCHO,Aeródromo
MCS,-57.63944444,-30.27027778,MONTE CASEROS,Aeródromo
MCT,-57.84572,-30.23519,MONTE CASEROS/TIMBOY,Aeródromo
MDB,-57.6775,-38.01166667,MAR DEL PLATA/BATAN,Aeródromo
MDP,-57.57333333,-37.93416667,MAR DEL PLATA/ASTOR PIAZZOLLA,Aeródromo
MER,-58.74388889,-34.67638889,MERLO,Aeródromo
MEZ,-64.3003,-31.40103,CÓRDOBA/LA MEZQUITA,Aeródromo
MGI,-58.24694444,-34.18222222,ISLA MARTÍN GARCIA,Aeródromo
MIN,-61.60359,-28.61901,VILLA MINETTI,Aeródromo
MJZ,-62.15772,-32.684,MARCOS JUAREZ,Aeródromo
MLA,-59.97805556,-29.36722222,MALABRIGO,Aeródromo
MLD,-64.61701,-33.61743,CORONEL MOLDES,Aeródromo
MLG,-69.57305556,-35.49527778,MALARGÜE/COMODORO D. RICARDO SALOMÓN,Aeródromo
MOI,-64.19111111,-32.03555556,CORRALITO/DON MOISÉS,Aeródromo
MON,-60.97972222,-32.35888889,MONJE/FUMIGACIONES GONZALEZ,Aeródromo
MOR,-58.64361111,-34.67916667,MORÓN,Aeródromo
MPH,-57.63972222,-38.02833333,MAR DEL PLATA/PARQUE HERMOSO,Aeródromo
MPP,-57.65361111,-38.01527778,MAR DEL PLATA/CLUB DE PLANEADORES,Aeródromo
MPU,-57.85166667,-36.88888889,MAIPÚ,Aeródromo
MRD,-59.45527778,-34.63888889,MERCEDES,Aeródromo
MSA,-60.16088,-35.44932,VEINTICINCO DE MAYO/SERVICIOS AGROAÉREOS,Aeródromo
MSP,-58.89693,-34.79759,MARCOS PAZ,Aeródromo
MSR,-65.24549,-33.74683,MERCEDES/EA. SANTA ROMANA,Aeródromo
MTL,-54.72388889,-26.54416667,MONTECARLO,Aeródromo
MTN,-64.96555556,-25.51416667,METAN,Aeródromo
MTR,-62.0259,-30.67594,MORTEROS,Aeródromo
MUQ,-63.63138889,-36.0575,QUEMÚ QUEMÚ,Aeródromo
MUS,-58.05194444,-35.54222222,CHASCOMÚS,Aeródromo
NAN,-63.68583333,-32.34027778,HERNANDO/AEROCLUB,Aeródromo
NDL,-59.09361111,-37.26305556,TANDIL/AEROCLUB,Aeródromo
NDR,-59.7910805,-35.327583,NORBERTO DE LA RIESTRA,Aeródromo
NEC,-58.81626,-38.48954,NECOCHEA,Aeródromo
NEI,-58.80453,-38.47884,NECOCHEA/IRIBERRI,Aeródromo
NEU,-68.15583333,-38.94888889,NEUQUÉN/PRESIDENTE PERÓN,Aeródromo
NIK,-58.76087,-38.15666,LOBERIA/NIKA,Aeródromo
NIN,-60.93051,-34.54589,JUNÍN,Aeródromo
NJB,-59.81583333,-32.41861111,NOGOYÁ/JUAN CARLOS BAGUR,Aeródromo
NOG,-59.75055556,-32.39944444,NOGOYÁ,Aeródromo
NOT,-59.86611,-32.44736,NOGOYÁ/TOGNOLI,Aeródromo
NPA,-58.795,-38.57527778,NECOCHEA/PULVERIZACIONES AEROSUR,Aeródromo
NST,-63.85805556,-25.4375,NUESTRA SEÑORA DE TALAVERA/FINCA TOLOCHE,Aeródromo
NVR,-59.28583333,-35.02361111,NAVARRO,Aeródromo
OBE,-55.12421,-27.5181,OBERÁ,Aeródromo
OCA,-61.84167,-32.58417,MONTES DE OCA,Aeródromo
OEL,-65.61,-39.28638889,CHOELE CHOEL,Aeródromo
OGB,-60.6561,-33.30609,CORONEL BOGADO/AEROFUMIGACIONES DON ALEJANDRO,Aeródromo
OLA,-60.22777778,-36.88888889,OLAVARRÍA,Aeródromo
OLV,-63.54799,-32.06029,OLIVA,Aeródromo
OMA,-68.73715,-38.41383,LOMA LA LATA,Aeródromo
ORA,-64.3288,-23.15221,ORÁN,Aeródromo
OSA,-64.27583333,-36.58833333,SANTA ROSA,Aeródromo
OVJ,-70.74222222,-36.99916667,LAS OVEJAS,Aeródromo
PAL,-58.6125,-34.61,EL PALOMAR,Aeródromo
PAN,-63.19298,-33.1055,PASCANAS/EL RECUERDO S.R.L.,Aeródromo
PAR,-60.48027778,-31.79472222,PARANÁ/GRAL. URQUIZA,Aeródromo
PAS,-62.21764,-35.10957,PASTEUR/LAS LILAS,Aeródromo
PAT,-62.98027778,-40.77805556,CARMEN DE PATAGONES,Aeródromo
PBE,-57.94917,-35.08795,POBLET,Aeródromo
PBO,-55.86498,-27.60678,POSADAS/BONETTI,Aeródromo
PCA,-64.18111111,-24.80666667,PIQUETE CABADO/SAS AEROAPLICACIONES,Aeródromo
PDA,-65.24727,-24.31467,JUJUY/PUERTA DE AVALOS,Aeródromo
PDP,-59.53539,-26.29586,PRESIDENCIA ROCA/EA. DON PANOS,Aeródromo
PED,-59.72527778,-33.70333333,SAN PEDRO,Aeródromo
PEH,-61.85748,-35.84451,PEHUAJÓ/COM. PEDRO ZANNI,Aeródromo
PEL,-60.88698,-30.96087,LA PELADA,Aeródromo
PEN,-60.70038,-33.85694,PERGAMINO/LA NORIA,Aeródromo
PEP,-60.79888889,-32.80388889,RICARDONE/PETTILEP II,Aeródromo
PER,-60.64805556,-33.92027778,PERGAMINO,Aeródromo
PIG,-62.38194444,-37.60611111,PIGÜÉ,Aeródromo
PJO,-61.94194444,-35.79055556,PEHUAJÓ/LA MARIELA,Aeródromo
PLC,-60.715,-33.07559,PIÑERO/EA. LA CAROLINA,Aeródromo
PLG,-63.14695,-36.27873,PELLEGRINI,Aeródromo
PLL,-61.06286,-33.00928,PUJATO/LA LUCÍA,Aeródromo
PLS,-58.93781,-25.281,PIRANÉ/EA. LA SALVACIÓN,Aeródromo
PLT,-62.08722222,-38.83416667,PUNTA ALTA,Aeródromo
PNA,-60.22,-31.73083333,PARANÁ/CLUB DE PLANEADORES,Aeródromo
PNR,-56.97416667,-37.09638889,PINAMAR,Aeródromo
PNT,-61.91415,-34.78595,GENERAL PINTO,Aeródromo
POS,-55.97049,-27.38573,POSADAS/LIBERTADOR GRAL. D. JOSÉ DE SAN MARTÍN,Aeródromo
PRA,-59.66378,-26.13774,PRESIDENTE ROCA/EA. LA LEONOR,Aeródromo
PRC,-60.58194444,-34.23611111,HUNTER/FUMIGACIONES FREDY,Aeródromo
PRI,-61.33194444,-38.00666667,CORONEL PRINGLES,Aeródromo
PSA,-62.45231389,-37.52304444,PIGÜÉ/SERVICIOS AERONÁUTICOS,Aeródromo
PSP,-60.49329,-26.75564,PRESIDENCIA ROQUE SAENZ PEÑA/TERMAL,Aeródromo
PST,-60.7534,-32.64155,PUERTO SAN MARTÍN/TERMINAL 6,Aeródromo
PSV,-60.48741,-26.78309,PRESIDENCIA ROQUE SAENZ PEÑA/ROVERE,Aeródromo
PTA,-57.89305556,-34.96916667,LA PLATA,Aeródromo
PTL,-57.96138889,-34.87444444,LA PLATA/TOLOSA,Aeródromo
PTM,-70.97879,-46.53844,PERITO MORENO,Aeródromo
PUA,-62.73444444,-37.53944444,PUAN,Aeródromo
PUP,-61.01765,-33.0077,PUJATO/PETTILEP,Aeródromo
RAE,-68.49242,-33.2068,RIVADAVIA/AEROTEC,Aeródromo
RAI,-58.44027778,-35.56861111,RANCHOS/LA IGUALDAD,Aeródromo
RAU,-59.05772,-36.7719,RAUCH,Aeródromo
RAW,-65.06319021,-43.29391627,RAWSON,Aeródromo
RBS,-62.67405,-34.24928,RUFINO/BSG,Aeródromo
RCE,-58.08805556,-29.22222222,MERCEDES,Aeródromo
RCR,-64.08833333,-32.17277778,RÍO TERCERO,Aeródromo
RCV,-69.39555556,-37.06555556,RÍO COLORADO/VALE,Aeródromo
RDJ,-60.78168,-32.82771,RICARDONE/DON JOSÉ,Aeródromo
RES,-59.17972222,-27.63111111,RESISTENCIA/AEROCLUB,Aeródromo
RGR,-69.26027778,-51.66861111,RÍO GALLEGOS/RÍO CHICO,Aeródromo
RIE,-64.42926,-33.09288,RÍO CUARTO/ESTINDHER,Aeródromo
RIN,-68.90444444,-37.39027778,RINCÓN DE LOS SAUCES,Aeródromo
RJA,-60.67325,-34.21534,ROJAS,Aeródromo
RLA,-61.50166667,-31.2825,RAFAELA,Aeródromo
RLC,-64.21277,-35.05892,REALICÓ,Aeródromo
RMY,-70.24444444,-45.70388889,RÍO MAYO,Aeródromo
ROB,-61.99718,-35.13588,ROBERTS/AGROAÉREO,Aeródromo
ROH,-61.99028,-35.13652,ROBERTS/FUMIGACIONES HERBINSEC,Aeródromo
ROP,-60.56472222,-33.08166667,ROSARIO/PUEBLO ESTHER,Aeródromo
ROS,-60.78444444,-32.90361111,ROSARIO/ISLAS MALVINAS,Aeródromo
ROT,-59.19146,-32.32954,ROSARIO DEL TALA,Aeródromo
RST,-61.60277778,-31.99472222,CAÑADA ROSQUIN/STIEFEL,Aeródromo
RTA,-59.68,-29.21027778,RECONQUISTA,Aeródromo
RUF,-62.6675,-34.28277778,RUFINO,Aeródromo
RVA,-62.99,-35.50194444,AMÉRICA,Aeródromo
RVD,-68.47406,-33.22834,RIVADAVIA,Aeródromo
RYD,-65.37579,-33.73178,VILLA REYNOLDS,Aeródromo
SAB,-59.76197,-35.73851,SALADILLO/ABELENDA,Aeródromo
SAF,-61.00568,-34.57637,SAFORCADA/PARAJON,Aeródromo
SAL,-65.48694444,-24.85972222,SALTA/GENERAL D. MARTÍN MIGUEL DE GÜEMES,Aeródromo
SAN,-65.03527778,-40.75055556,SAN ANTONIO OESTE/ANTOINE DE SAINT EXUPERY,Aeródromo
SBE,-60.45166667,-31.80861111,SAN BENITO,Aeródromo
SCA,-61.52888889,-30.95722222,SUNCHALES/AEROCLUB,Aeródromo
SCF,-61.20267,-33.17625,SANFORD/CASILDA FUMIGACIONES,Aeródromo
SCL,-61.82983,-31.35548,SANTA CLARA DE SAGUIER,Aeródromo
SCT,-61.22,-30.26416667,SAN CRISTÓBAL,Aeródromo
SCZ,-68.58027778,-50.01777778,SANTA CRUZ,Aeródromo
SDE,-64.31,-27.76555556,SANTIAGO DEL ESTERO/VCOM. ANGEL DE LA PAZ ARAGONÉS,Aeródromo
SDL,-59.81676,-35.60439,SALADILLO,Aeródromo
SEN,-58.29517,-35.18174,CORONEL BRANDSEN,Aeródromo
SER,-60.90944,-32.57978,SERODINO/FUMIGACIONES STANDLER,Aeródromo
SEZ,-61.86958,-34.80139,GENERAL PINTO/ALFREDO SANCHEZ,Aeródromo
SFN,-62.03107,-29.77908,SELVA NUEVA/FUMIGACIONES NANDO S.H.,Aeródromo
SGE,-62.01916667,-34.31694444,SAN GREGORIO,Aeródromo
SGI,-60.30111111,-38.40833333,TRES ARROYOS/SANTAGIULIAN,Aeródromo
SGR,-65.33991,-41.59138,SIERRA GRANDE,Aeródromo
SGV,-61.90083333,-30.31666667,SAN GUILLERMO/VERGNANO,Aeródromo
SHP,-59.39154,-34.21122,SAN ANTONIO DE ARECO/HARAS LA POMME,Aeródromo
SIS,-59.05611111,-27.45,RESISTENCIA,Aeródromo
SJA,-68.54722222,-31.60305556,SAN JUAN/AEROCLUB,Aeródromo
SJB,-61.95111111,-31.87111111,SAN JORGE/BOCCA,Aeródromo
SJD,-63.85751,-30.27423,SAN JOSÉ DE LA DORMIDA,Aeródromo
SJR,-59.99069,-30.55586,SAN JAVIER/AEROCLUB,Aeródromo
SJT,-60.56722222,-30.76611111,SAN JUSTO,Aeródromo
SJU,-67.80282,-49.30671,SAN JULIÁN/CAPITÁN D. DANIEL VAZQUEZ,Aeródromo
SLG,-61.76115,-38.20517,SALDUNGARAY,Aeródromo
SLO,-62.94407,-36.75659,SALLIQUELÓ,Aeródromo
SLP,-64.22041,-36.59206,SANTA ROSA/SAN ALBERTO,Aeródromo
SLT,-60.28678,-34.3065,SALTO,Aeródromo
SLV,-64.03403,-23.21306,EMBARCACIÓN/SALVITA,Aeródromo
SLY,-61.82767,-38.24173,SALDUNGARAY/SANTO TOMÁS DE LA SIERRA,Aeródromo
SLZ,-62.22694444,-36.35027778,SALAZAR/EA. EL TRIÁNGULO,Aeródromo
SMC,-66.02481,-26.67385,SANTA MARÍA,Aeródromo
SMF,-63.29064,-22.12362,SAN MARTÍN/FINCA LA FRONTERA,Aeródromo
SMM,-58.76388889,-35.45944444,SAN MIGUEL DEL MONTE/BAHÍA AGRADABLE,Aeródromo
SMS,-62.53111111,-32.73666667,SAN MARCOS/CHIALVA S.H.,Aeródromo
SMT,-63.59111,-37.95934,GENERAL SAN MARTÍN,Aeródromo
SNT,-59.43911,-34.2198,SAN ANTONIO DE ARECO,Aeródromo
SNY,-60.19555556,-33.39083333,SAN NICOLÁS DE LOS ARROYOS,Aeródromo
SQI,-61.61348,-32.10557,CAÑADA ROSQUIN,Aeródromo
SRA,-68.40358889,-34.58781667,SAN RAFAEL/S.A. SANTIAGO GERMANO,Aeródromo
SRC,-65.18583333,-32.38472222,SANTA ROSA DE CONLARA/VALLE DEL CONLARA,Aeródromo
SRE,-63.12451,-34.54661,SANTA REGINA/FORTÍN DE GAINZA,Aeródromo
SRM,-69.00111111,-45.58305556,SARMIENTO,Aeródromo
SSK,-60.15597,-34.35684,SALTO/SKARE,Aeródromo
SSR,-60.14666667,-35.82833333,SALADILLO/SANTA RITA,Aeródromo
STD,-62.61747,-40.21038,STROEDER,Aeródromo
STI,-68.50944444,-33.06222222,SAN MARTÍN,Aeródromo
STR,-56.72138889,-36.54222222,SANTA TERESITA,Aeródromo
SUZ,-61.88934,-37.44609,CORONEL SUÁREZ/BRIG. D. H. E.  RUIZ,Aeródromo
SVO,-60.81138889,-31.71083333,SANTA FÉ/SAUCE VIEJO,Aeródromo
TAR,-63.79305556,-22.61833333,TARTAGAL/GENERAL ENRIQUE MOSCONI,Aeródromo
TBL,-61.75915,-32.24383,EL TRÉBOL/BURDISSO,Aeródromo
TCM,-65.30937,-26.79606,TUCUMÁN/AEROCLUB HORCO MOLLE,Aeródromo
TDB,-61.65166667,-32.25055556,EL TREBOL/DE BERNARDO,Aeródromo
TEC,-71.02194444,-43.61222222,ESTANCIA TECKA,Aeródromo
TEJ,-62.46944444,-35.42527778,CARLOS TEJEDOR,Aeródromo
TEO,-61.50694444,-34.17666667,TEODELINA/F.A.T.,Aeródromo
TEV,-62.30972222,-26.89527778,TINTINA/ESTABLECIMIENTO EL 21,Aeródromo
THN,-67.17226,-54.49961,TOLHUIN,Aeródromo
TIN,-67.57759,-28.04089,TINOGASTA,Aeródromo
TIO,-63.40194444,-32.29305556,TÍO PUJIO,Aeródromo
TIR,-64.03847,-31.24797,COLONIA TIROLESA,Aeródromo
TLS,-65.28158,-32.75226,TILISARAO,Aeródromo
TOR,-62.24944444,-38.095,TORNQUIST,Aeródromo
TOS,-61.78845,-29.23552,TOSTADO,Aeródromo
TOT,-64.36888889,-31.65027778,ALTA GRACIA /EL TOTO,Aeródromo
TQL,-62.77194444,-35.97027778,TRENQUE LAUQUEN/ÑANCO LAUQUEN,Aeródromo
TRC,-64.26934,-33.09216,RÍO CUARTO/ÁREA DE MATERIAL,Aeródromo
TRE,-65.27027778,-43.21055556,TRELEW/ALMIRANTE ZAR,Aeródromo
TRH,-64.93596,-27.49662,TERMAS DE RÍO HONDO,Aeródromo
TRW,-65.32414,-43.23564,TRELEW/AEROCLUB,Aeródromo
TSV,-61.77805556,-32.99888889,TORTUGAS/EA. SAN VICENTE,Aeródromo
TUC,-65.10472222,-26.84083333,TUCUMÁN/TENIENTE BENJAMIN MATIENZO,Aeródromo
TVN,-71.47808,-43.08742,TREVELIN,Aeródromo
TXO,-69.30194444,-37.365,EL TRAPIAL/CHEVRON TEXACO,Aeródromo
UAE,-59.37388889,-33.10222222,GUALEGUAY/AEROCLUB,Aeródromo
UCO,-60.40972222,-34.60722222,CHACABUCO,Aeródromo
UEL,-59.03479,-31.80384,VILLAGUAY/EL JAGÜEL,Aeródromo
UEN,-58.37148208,-38.42552552,QUEQUEN/MOROMAR,Aeródromo
UIS,-66.35666667,-33.27222222,SAN LUIS/BRIG. MAYOR D. CÉSAR RAUL OJEDA,Aeródromo
ULL,-68.355331,-52.893494,RÍO CULLEN/TOTAL AUSTRAL,Helipuerto
UNE,-60.8436,-32.88841,FUNES/ALAGRO FUMIGACIONES,Aeródromo
UPE,-60.67690162,-31.59274469,SANTA FÉ/GUADALUPE,Aeródromo
URD,-58.8989,-32.69589,URDINARRAIN,Aeródromo
URL,-63.76652,-36.55297,URIBURU/ESTANCIA LOS ROBLES,Aeródromo
URO,-62.675,-39.45583333,PEDRO LURO,Aeródromo
USU,-68.29555556,-54.84333333,USHUAIA/MALVINAS ARGENTINAS,Aeródromo
VAL,-66.1573,-40.69909,VALCHETA,Aeródromo
VAN,-60.68196,-27.59505,VILLA ANGELA,Aeródromo
VAY,-64.54027778,-32.20805556,VILLA AMANCAY/HALLPA HUAYRA,Aeródromo
VCA,-65.41617,-36.20694,VICTORICA,Aeródromo
VCC,-61.63335,-33.96101,VILLA CAÑAS/S. A. MIGUEL A. CARDONE,Aeródromo
VDA,-61.48972222,-34.48611111,VEDIA,Aeródromo
VDL,-57.76722222,-37.46777778,CORONEL VIDAL,Aeródromo
VDO,-71.48582,-43.53287,EL CORCOVADO,Aeródromo
VDR,-63.53888889,-31.58055556,VILLA DEL ROSARIO,Aeródromo
VEC,-71.24555556,-43.72138889,CORCOVADO/EA. CARIDAD,Aeródromo
VER,-60.2264,-29.46835,VERA,Aeródromo
VEZ,-61.17777778,-32.03527778,GALVEZ,Aeródromo
VGB,-64.56444444,-31.96444444,VILLA GENERAL BELGRANO,Aeródromo
VIC,-60.1894,-32.5845,VICTORIA,Aeródromo
VIE,-62.99666667,-40.87027778,VIEDMA/GOBERNADOR CASTELLO,Aeródromo
VIG,-59.07305556,-31.85055556,VILLAGUAY,Aeródromo
VIT,-62.71372,-22.28551,SANTA VICTORIA,Aeródromo
VLL,-59.41059,-31.69211,VILLAGUAY/EL MALAGUEÑO,Aeródromo
VMA,-64.40775,-33.93823,VICUÑA MACKENNA/DON ÁNGEL,Aeródromo
VMB,-64.41509,-33.93757,VICUÑA MACKENNA/BENEFICIOS S.R.L.,Aeródromo
VMC,-64.41595,-33.934,VICUÑA MACKENNA/COMEQUECHEN,Aeródromo
VMK,-64.37117,-33.94302,VICUÑA MACKENNA/MARTÍN FIERRO,Aeródromo
VMR,-63.22654,-32.32006,VILLA MARIA/AEROPUERTO REGIONAL,Aeródromo
VMT,-65.32472222,-33.84472222,VILLA MERCEDES/LAS TOTORITAS,Aeródromo
VNA,-57.36722222,-35.39944444,VERÓNICA,Aeródromo
VNO,-61.95515,-33.67977,VENADO TUERTO,Aeródromo
VNR,-63.28930556,-32.43816667,VILLA NUEVA/RAIG SA,Aeródromo
VNS,-63.30222222,-32.42694444,VILLA NUEVA/SUAREZ AVIACIÓN,Aeródromo
VPO,-59.32612,-28.49598,VILLA OCAMPO,Aeródromo
VRG,-67.07805556,-39.07472222,VILLA REGINA,Aeródromo
VRU,-64.48888889,-32.18416667,VILLA RUMIPAL/PRIMER TENIENTE MARIO NIVOLI,Aeródromo
VTE,-54.48789,-26.95314,SAN VICENTE,Aeródromo
VTO,-62.06369,-33.69132,VENADO TUERTO/LA SIESTA,Aeródromo
VTS,-61.97609,-33.77872,VENADO TUERTO/SAVESA,Aeródromo
YOP,-60.27611111,-38.34777778,TRES ARROYOS/PETRAZZINI,Aeródromo
YOS,-60.3275,-38.38555556,TRES ARROYOS,Aeródromo
YPY,-56.79573,-29.35877,YAPEYÚ,Aeródromo
ZAP,-70.11346389,-38.97588611,ZAPALA,Aeródromo
ZLM,-62.67138889,-32.48972222,BELL VILLE/LA ZULEMA,Aeródromo
ZUL,-59.8808,-36.83675,AZUL,Aeródromo
PDI,-57.291052,-35.354217,PUNTA INDIO,Aeródromo
